City,Latitude,Longitude,Housing,Cost_of_Living,Startups,Venture_Capital,Travel_Connectivity,Commute,Business_Freedom,Safety,Healthcare,Education,Environmental_Quality,Economy,Taxation,Internet_Access,Leisure,Tolerance,Outdoors
Aarhus,56.162939,10.203921000000001,6.1315,4.0150000000000015,2.8270000000000013,2.512,3.5360000000000005,6.31175,9.94,9.616500000000002,8.704333333333333,5.3665,7.633000000000001,4.886500000000002,5.0680000000000005,8.373,3.187,9.738500000000002,4.13
Adelaide,-34.9284989,138.6007456,6.3095,4.692,3.1365,2.64,1.7765000000000004,5.33625,9.399666666666667,7.926000000000001,7.9366666666666665,5.142,8.330750000000002,6.0695000000000014,4.5885,4.341,4.3285,7.822,5.5310000000000015
Albuquerque,35.0843859,-106.65042199999999,7.262,6.059,3.772,1.493,1.4555000000000002,5.05575,8.671,1.3435,6.429999999999999,4.151999999999999,7.3195,6.5145,4.346,5.396000000000001,4.8900000000000015,7.028499999999998,3.5155
Almaty,43.2220146,76.8512485,9.282,9.333,2.4585,0.0,4.592,5.871249999999999,5.568,7.309,4.5456666666666665,2.283,3.85675,5.269,8.522,2.886,2.9370000000000003,6.5395,5.499999999999999
Amsterdam,52.3666969,4.8945398,3.0529999999999995,3.8240000000000007,7.971500000000002,6.107,8.3245,6.1185,8.836666666666666,8.503500000000003,7.907333333333333,6.18,7.59725,5.053000000000001,4.954999999999999,4.5230000000000015,8.874,8.368,5.307
Anchorage,61.2180556,-149.90027780000003,5.433500000000001,3.141,2.7945,0.0,1.7379999999999998,4.715249999999998,8.671,3.4704999999999995,6.0603333333333325,3.6245,9.272000000000002,6.5145,4.772,4.9645,3.2660000000000005,7.093,5.3580000000000005
Andorra,42.506285,1.521801,3.969,0.0,1.0,0.0,0.5,0.0,0.0,9.5535,0.0,0.0,7.256,0.0,4.475,7.186,2.1319999999999997,8.7035,3.5885
Ankara,39.9333635,32.859741899999996,9.927999999999999,9.125,3.9725000000000006,0.0,2.0475,5.291,5.948333333333332,7.4250000000000025,6.9143333333333326,2.0285,2.9360000000000004,4.0935000000000015,4.323499999999999,2.3160000000000003,8.638499999999999,4.485500000000001,5.1465
Asheville,35.5950581,-82.5514869,5.855999999999999,5.311,3.5405,0.0,1.2095,1.358,8.671,5.852500000000001,6.7253333333333325,3.6245,8.49325,6.5145,4.062,4.7875,5.063,7.7305,2.2655
Asuncion,-25.263739899999997,-57.57592599999999,9.2265,9.295000000000002,2.207,0.0,0.645,4.968750000000001,3.6839999999999997,6.9345,5.485333333333332,0.0,3.969,4.109,8.423499999999999,1.479,5.991999999999999,7.051499999999999,3.4845000000000006
Athens,37.9838096,23.7275388,9.052499999999998,6.5,4.404,2.325,3.707,5.21975,6.168999999999999,6.7585,7.153,3.1625,3.80225,3.3199999999999994,4.1665,2.2279999999999998,7.876000000000001,6.268000000000002,6.483
Atlanta,33.7489954,-84.3879824,4.9755,5.2410000000000005,8.835,7.2570000000000014,5.2915,3.89775,8.671,2.6725,6.0233333333333325,6.456999999999999,5.817749999999998,6.5145,4.204,6.4805,7.7654999999999985,4.062,5.0095
Auckland,-36.84830480000001,174.76248859999998,4.72,4.4700000000000015,4.588000000000001,2.79,1.3045000000000004,4.8450000000000015,10.0,7.0215,8.162666666666665,5.0465,8.2725,5.505500000000001,5.9315,6.8500000000000005,4.395999999999999,7.402000000000001,5.862
Austin,30.267153000000004,-97.7430608,4.3345,5.355,9.236,6.939000000000001,1.8515000000000004,4.3305,8.671,5.069,6.281666666666666,5.315000000000001,7.03075,6.5145,4.772,9.049,6.698,6.7895,3.909
Baku,40.40926169999999,49.8670924,9.745,9.806,2.6705,0.0,2.1690000000000005,5.492000000000001,5.671666666666666,8.772,3.7019999999999986,0.0,2.62125,3.8765,5.861000000000001,1.4420000000000002,6.2195,6.584500000000001,4.503
Bali,-8.3405389,115.09195090000001,5.0,0.0,1.628,0.0,1.93,5.193500000000001,3.912333333333333,8.7475,4.442,0.5275,4.13775,4.6575000000000015,6.266,3.2375000000000003,6.3335,4.558999999999998,7.5005
Baltimore,39.2903848,-76.6121893,4.829999999999999,4.982,0.0,4.3580000000000005,3.6665,4.93475,5.502000000000002,2.373,6.870666666666667,5.8805,5.784500000000001,6.5145,4.062,4.988,0.0,5.755,3.9795
Bangkok,13.7563309,100.5017651,7.3935,7.222,6.119,3.4530000000000003,4.112,4.293500000000001,5.6036666666666655,7.0365,7.126666666666665,1.6915,3.37125,2.387,6.794500000000001,4.8264999999999985,9.089,6.019,6.4940000000000015
Barcelona,36.088105600000006,-95.9241306,6.323,6.074000000000002,7.7585000000000015,5.655,5.806,5.69925,7.1196666666666655,7.407499999999999,8.403333333333332,5.029000000000002,3.6655000000000006,4.296,3.894000000000001,6.467999999999999,8.591499999999998,7.471500000000002,5.8279999999999985
Beijing,39.90419989999999,116.4073963,6.173000000000001,8.101,4.872,9.562,7.0175,4.83675,3.815333333333333,7.066,6.423333333333333,7.971000000000003,2.0555000000000003,6.103,1.4260000000000002,3.4930000000000003,7.268499999999999,2.822,4.9435
Beirut,33.8937913,35.50177670000001,6.655500000000001,6.3,3.4094999999999995,0.0,1.3045000000000004,4.77275,4.329,6.832999999999999,6.1593333333333335,1.0035,1.449,3.4345000000000003,8.2805,1.5905,3.3995,4.184,3.842000000000001
Belfast,54.59728500000001,-5.93012,7.532000000000001,6.014000000000001,3.55,1.6210000000000002,4.0985,5.28,8.991999999999997,7.6789999999999985,8.168333333333333,4.6865000000000006,8.377500000000001,5.438,5.9545,5.5955,4.957000000000002,5.9795,1.413
Belgrade,44.786568,20.448921600000002,9.2575,8.546000000000001,4.9095,2.333,2.1365000000000003,5.5782500000000015,5.383999999999999,6.6995000000000005,6.0103333333333335,0.5,4.88325,1.6380000000000001,4.1665,3.863,6.497000000000001,7.387,5.078
Belize City,17.5045661,-88.1962133,4.6425,0.0,1.8659999999999999,0.0,0.8900000000000001,0.0,3.411,6.0520000000000005,5.503999999999999,0.0,2.031,3.496,6.9300000000000015,3.8075,1.0645,6.865,0.5
Bengaluru,12.9715987,77.5945627,9.810999999999998,10.0,10.0,8.972999999999997,4.064,4.00625,3.618,7.294,3.937,0.6559999999999999,2.75575,5.5565,3.4145,2.841,3.2215000000000007,3.4845,2.385
Bergen,60.39126279999999,5.3220544,5.229499999999999,1.805,2.207,1.0,3.2425000000000006,5.8875,9.635333333333332,7.7075,7.646666666666666,4.8395,7.539250000000001,7.0735,4.752,6.537000000000001,4.4875,7.6145,4.3135
Berlin,52.52000659999999,13.404954,6.3950000000000005,5.524,9.085,7.820000000000001,7.024999999999999,6.1960000000000015,9.072333333333333,7.251500000000001,7.990666666666666,7.019000000000001,6.771500000000001,5.373500000000001,3.9035,4.677999999999999,8.881,7.1774999999999975,5.475000000000001
Bern,46.9479739,7.447446799999999,4.922500000000001,1.0,2.6875000000000004,0.0,5.2635000000000005,5.19775,8.888,9.266,7.520333333333332,5.3455,9.2445,6.5520000000000005,6.4285000000000005,6.1145000000000005,4.245,8.589,2.1225
Bilbao,43.263012599999996,-2.9349852000000003,6.888000000000001,5.638,2.668,0.0,4.1735,5.774750000000001,7.1196666666666655,8.7805,9.320666666666666,3.7590000000000012,8.328000000000001,4.296,3.894000000000001,5.756,6.0139999999999985,8.663,1.4809999999999999
Birmingham,33.5185892,-86.8103567,5.9035,5.814,4.3575,2.541,5.8450000000000015,5.4935,8.991999999999997,6.946500000000001,8.293666666666667,5.0265,5.7385,5.438,5.9545,5.940000000000001,4.4350000000000005,6.421,1.2675
"Birmingham, AL",33.5185892,-86.8103567,6.5555,5.132999999999999,4.3575,1.0,1.4354999999999998,2.02075,8.671,1.776,6.540999999999999,3.6245,7.0375,6.5145,4.204,5.1605,5.3835,4.881500000000002,1.2660000000000002
Bogota,4.7109885999999985,-74.072092,9.0275,9.079999999999998,5.7085,1.259,1.889,4.9639999999999995,6.348666666666665,6.222000000000001,6.301666666666668,1.534,4.3475,4.5945,1.8515000000000004,2.9760000000000004,6.215,8.555499999999999,7.477
Boise,43.6150186,-116.2023137,6.9635,6.577999999999999,4.205,2.5960000000000005,1.3235,5.2250000000000005,8.671,4.3605,6.797333333333333,3.6245,8.069500000000001,6.5145,4.062,3.4419999999999997,4.1995,6.9275,5.221
Bologna,44.494887,11.3426162,7.471999999999999,5.189,3.1485000000000007,1.3969999999999998,3.682,5.53,6.189666666666667,7.337000000000001,8.577666666666667,4.2025000000000015,5.460250000000001,3.3625,2.4365,7.7105,5.7360000000000015,7.617999999999999,1.5815
Bordeaux,44.837789,-0.57918,7.1915,4.583,3.6915,0.0,4.876,5.54975,8.088333333333333,7.466,8.823333333333332,4.442,7.261000000000001,4.2045,2.648000000000001,3.875,5.3005,7.126499999999999,2.8755
Boston,42.360082500000004,-71.0588801,1.0,4.2589999999999995,9.565,10.0,3.215,4.39625,8.671,7.742000000000001,6.728999999999997,8.6245,8.1705,6.5145,4.062,5.700500000000001,8.564,8.4815,5.659999999999998
Boulder,40.0149856,-105.2705456,3.7039999999999997,4.531000000000001,5.8530000000000015,6.019,4.207,6.138000000000003,8.671,7.0735,7.050333333333333,4.678999999999999,9.84375,6.5145,4.346,6.2780000000000005,2.5649999999999995,9.274500000000002,6.699
Bozeman,45.676997899999996,-111.04293390000001,2.949,0.0,3.407,0.0,1.1905,0.0,8.671,6.9145,6.515,4.128,9.369,6.5145,4.062,5.1560000000000015,1.907,7.2935,6.1339999999999995
Bratislava,48.148596500000004,17.1077478,7.8744999999999985,7.617999999999999,3.487,0.0,4.8900000000000015,5.8115000000000006,6.188666666666666,8.618,6.751999999999999,3.2975,6.199999999999998,4.4705,4.937,4.583500000000001,6.186,6.432499999999999,4.8575
Brighton,40.598019,-111.58318700000001,2.49,5.324,3.4094999999999995,0.0,8.322000000000001,5.547500000000001,8.991999999999997,8.4715,7.716333333333331,4.9060000000000015,8.245750000000001,5.438,5.9545,4.7585,4.8695,8.17,4.898
Brisbane,-27.469770699999998,153.0251235,5.212000000000001,5.1770000000000005,6.343,3.24,2.4345,4.617750000000001,9.399666666666667,7.903500000000001,8.317666666666666,5.9209999999999985,8.82775,6.0695000000000014,4.5885,4.4075000000000015,4.01,7.489500000000001,6.256500000000003
Bristol,41.67176480000001,-72.9492703,5.215999999999998,5.242000000000001,4.113,3.593,4.8900000000000015,5.4437500000000005,8.991999999999997,7.939999999999999,8.251666666666665,5.4615,6.472250000000002,5.438,5.9545,6.4780000000000015,3.8625,7.439499999999999,4.538
Brno,49.1950602,16.6068371,8.329000000000002,7.9259999999999975,2.9155,0.0,2.6010000000000004,5.8272499999999985,6.2126666666666654,8.5655,8.096666666666666,4.2265000000000015,6.05525,4.378000000000001,5.9335,7.020500000000002,5.3525,8.055000000000001,3.694
Brussels,50.8503463,4.3517211,6.355,4.477,5.6915,3.374,7.4675,5.386750000000001,8.876999999999997,6.702999999999999,8.158333333333333,6.6530000000000005,4.591000000000001,4.8115000000000006,1.883,7.5715,8.143999999999998,6.481,4.123
Bucharest,44.4267674,26.1025384,9.186500000000002,8.516,5.382999999999999,1.187,3.4955,5.072500000000002,5.6816666666666675,8.985999999999997,6.075333333333332,2.4475,3.41925,4.103,6.839,9.638,6.9594999999999985,8.686500000000002,1.9675
Budapest,47.497912,19.040235,8.570500000000001,7.947999999999999,5.4935,2.8040000000000003,4.426500000000001,5.395000000000001,6.707999999999998,8.218499999999999,5.745999999999999,3.693,5.2875,4.946000000000001,6.1075,6.7589999999999995,8.253000000000002,7.228,5.112000000000001
Buenos Aires,-34.6036844,-58.381559100000004,8.812000000000003,7.7639999999999985,4.672999999999999,2.3100000000000005,3.77,4.9235,4.045333333333334,6.0395,6.978999999999997,1.422,4.869,2.884,1.568,1.5275,7.6735,8.584000000000001,4.535500000000001
Buffalo,42.88644679999999,-78.8783689,7.0765,5.2280000000000015,3.947000000000001,2.7150000000000003,1.511,2.154,8.671,7.1885,6.457333333333333,4.212,8.329249999999998,6.5145,3.9205,6.757999999999999,4.32,7.404000000000001,4.6465
Cairo,30.0444196,31.235711600000005,10.0,10.0,5.0985000000000005,2.958,3.7575,3.99025,5.790666666666668,6.791,4.041,0.5,1.1555000000000002,2.978,5.101,2.405,6.1855,2.6500000000000004,0.5
Calgary,51.04473309999999,-114.0718831,6.495000000000001,5.417999999999998,5.9495000000000005,2.036,2.514,5.1575000000000015,8.966000000000001,7.922999999999999,8.026333333333334,5.5550000000000015,8.191499999999998,5.8405000000000005,7.2745000000000015,5.6705000000000005,4.268,8.1105,7.504499999999998
Cambridge,42.373615799999996,-71.10973349999998,4.1055,4.851,5.252999999999999,3.2840000000000003,6.887499999999998,5.627750000000002,8.991999999999997,9.504499999999998,8.189,6.554500000000001,8.0165,5.438,5.9545,5.8095,2.455,8.487000000000002,0.5
Cape Town,-33.9248685,18.424055300000003,6.7635000000000005,7.955,5.6110000000000015,3.725,2.1630000000000003,3.8425,4.732,5.3279999999999985,4.343,0.8945000000000001,6.6085,2.7680000000000007,5.151,5.612500000000002,4.7360000000000015,3.6605,6.7505000000000015
Caracas,10.480593699999998,-66.90360629999999,4.9025,9.82,3.0535,0.0,1.3235,4.544250000000001,1.0,5.221,4.178333333333334,0.0,2.2725,1.9780000000000002,4.1800000000000015,1.6415000000000002,4.38,4.5505,4.0985
Cardiff,51.48158100000001,-3.17909,7.065,6.082000000000001,3.3955,1.7800000000000002,4.8900000000000015,5.7647499999999985,8.991999999999997,8.21,8.318333333333333,4.785500000000001,6.607249999999999,5.438,5.9545,5.101,5.0285,7.996,4.8055
Casablanca,33.5731104,-7.589843399999999,8.822000000000001,9.088,3.0975,0.0,2.9145,4.26,5.614333333333333,6.775500000000001,4.47,0.0,2.2555000000000005,3.1735,3.2995,2.0669999999999997,2.6830000000000003,2.945,3.9935
Charleston,32.776474900000004,-79.93105120000001,4.6370000000000005,3.5669999999999997,4.92,2.011,1.399,4.62075,8.671,5.0555,6.7796666666666665,3.6245,7.276,6.5145,4.062,6.093,6.5950000000000015,5.771000000000001,5.0095
Charlotte,35.2270869,-80.8431267,5.5489999999999995,4.987,6.247999999999998,2.878,3.679,4.1339999999999995,8.671,5.347499999999998,6.432333333333332,3.6245,8.009249999999998,6.5145,4.062,6.3870000000000005,5.606,6.7895,1.3115
Chattanooga,35.0456297,-85.3096801,6.782,6.121,3.9095,2.228,1.2095,0.7969999999999999,8.671,4.468,6.242999999999999,3.6245,7.1515,6.5145,4.772,8.365,4.1625,4.7925,3.908
Chennai,13.0826802,80.2707184,10.0,10.0,7.104,3.782000000000001,4.208,4.8420000000000005,3.618,7.8370000000000015,4.074666666666666,0.5115000000000001,2.3945000000000007,5.5565,3.4145,6.825500000000001,2.2275,4.550000000000002,4.198
Chiang Mai,18.788343899999997,98.9853008,9.3725,8.495000000000001,1.783,0.0,1.6945,5.1412499999999985,5.6036666666666655,8.452500000000002,7.393666666666667,1.6875,3.9810000000000003,2.387,6.794500000000001,4.2865,6.847500000000001,6.8715,3.088
Chicago,41.8781136,-87.62979820000001,3.702,4.766000000000001,9.513,8.368,5.5075,4.57975,8.671,3.832,6.2159999999999975,7.999,6.8045,6.5145,4.062,6.599499999999999,8.193,6.134,5.4155
Chisinau,47.0104529,28.8638102,9.6765,9.343,3.0535,0.0,1.6025,5.495,5.4433333333333325,7.627999999999999,5.065999999999999,1.3995,4.33825,3.9765000000000006,6.2325,5.3615,2.7120000000000006,6.6469999999999985,3.1210000000000004
Christchurch,-43.5319957,172.6396575,6.934000000000001,5.096,1.5355000000000003,0.0,0.8334999999999999,5.51775,10.0,7.584999999999999,8.312333333333333,4.756,9.2565,5.505500000000001,5.9315,5.922000000000001,3.2235000000000014,8.403500000000001,6.269
Cincinnati,39.103118200000004,-84.5120196,6.6775,6.1080000000000005,6.0995,2.709,1.9265,4.743500000000001,8.671,4.975,6.345999999999999,4.2805,7.1095,6.5145,3.9205,6.512000000000001,6.118000000000001,5.299,3.6075
Cleveland,41.499320000000004,-81.6943605,7.155999999999999,5.595,4.961,3.646,2.077500000000001,4.42125,8.671,3.637,6.7556666666666665,4.6185,7.2505,6.5145,3.9205,5.4765000000000015,5.696500000000001,4.775499999999999,4.669
Cluj-Napoca,46.771210100000005,23.6236353,9.165,8.794,3.4094999999999995,1.8990000000000005,1.7625000000000002,5.876,5.6816666666666675,9.4745,6.434333333333332,2.4480000000000004,6.40075,4.103,6.839,8.6655,2.6275000000000004,8.624,4.255
Cologne,50.937531,6.9602786,6.5265,5.606999999999998,5.1065000000000005,3.2780000000000005,7.282000000000001,5.3817499999999985,9.072333333333333,6.6295,8.04,5.1035,6.48,5.373500000000001,3.9035,5.666,5.3225,6.7115,5.2890000000000015
Colorado Springs,38.8338816,-104.82136340000001,6.4995,5.375,4.2669999999999995,2.147,1.266,1.7352500000000004,8.671,5.3775,5.8439999999999985,3.6245,8.526500000000002,6.5145,4.346,5.9225,3.812,9.206,7.356499999999999
Columbus,39.9611755,-82.99879419999998,6.2895,5.746000000000001,5.878500000000002,4.973000000000001,1.663,5.02675,8.671,5.2815,6.406000000000001,5.0474999999999985,8.166,6.5145,3.9205,4.5535,6.465999999999998,5.9215,4.544999999999999
Copenhagen,55.676096799999996,12.568337199999998,4.227,3.426,6.206999999999999,4.467,6.3,6.2955000000000005,9.94,9.1525,7.985333333333334,5.301,8.27225,4.886500000000002,5.0680000000000005,7.239500000000001,7.0630000000000015,9.0955,4.671000000000001
Cork,38.914356700000006,-77.031686,5.514500000000001,4.902,3.9875,2.87,2.3615,5.504250000000001,8.345666666666666,8.839500000000003,7.426333333333334,4.879,8.012750000000002,7.514500000000001,6.254999999999999,9.143999999999998,2.5315,8.630500000000001,0.5
Curitiba,-25.480876199999997,-49.3044253,9.4295,8.433,2.912,2.148,0.8900000000000001,4.950250000000001,2.781,5.9465,5.897,1.0165000000000002,7.75725,2.187,2.8525,3.1420000000000003,7.1875,7.848000000000001,2.6655
Dallas,32.7766642,-96.7969879,5.259000000000001,6.090999999999998,7.939500000000002,4.916,4.746499999999998,4.4705,8.671,4.339,6.086666666666666,4.284,6.693,6.5145,4.772,6.460999999999999,7.1685,5.294,4.501999999999999
Dar es Salaam,-6.792354,39.2083284,7.652000000000001,8.026,2.6875000000000004,3.1910000000000003,1.4535,2.07575,3.2886666666666664,6.1005,3.238666666666667,0.0,2.0802500000000004,5.499999999999999,4.497000000000001,1.11,1.205,2.7665,4.3535
Delhi,28.7040592,77.10249019999998,9.752,9.869,9.828500000000002,9.099000000000002,5.642,3.71225,3.618,6.4185,3.7126666666666654,0.512,2.2030000000000003,5.5565,3.4145,3.588,5.683,3.1159999999999988,1.1785
Denver,39.739235799999996,-104.990251,3.8375,5.102,7.8645,6.117000000000001,4.243,4.530000000000001,8.671,5.371,6.220333333333333,3.6245,7.11675,6.5145,4.346,5.418500000000001,6.2235,7.860499999999999,7.932999999999999
Des Moines,41.5868353,-93.6249593,6.850999999999999,6.327000000000001,2.912,1.818,1.379,2.0722500000000004,8.671,6.984,6.709,3.6245,8.68225,6.5145,4.346,5.698,6.0665,8.4765,3.299500000000001
Detroit,42.331427000000005,-83.0457538,6.223000000000001,6.032,5.4015,5.183999999999998,3.6405,0.933,8.671,4.4615,5.786333333333332,5.8185,4.04675,6.5145,3.7785,6.1670000000000025,7.478,3.678,5.387499999999998
Doha,25.2854473,51.53103979999999,2.1315,6.183,2.6875000000000004,0.0,2.6425,4.61625,7.408333333333332,9.486,7.4336666666666655,1.4335,3.94175,9.39,10.0,3.245,4.6205,5.0625,4.4369999999999985
Dresden,51.0504088,13.737262099999999,7.884500000000001,6.0280000000000005,2.4065,1.5330000000000001,3.5360000000000014,4.959999999999999,9.072333333333333,8.463999999999999,8.393666666666666,5.124500000000001,8.110750000000001,5.373500000000001,3.9035,5.6035,6.6385,7.369,4.649
Dubai,25.204849300000003,55.2707828,2.591,5.49,7.309000000000001,4.183,4.508,4.2285,8.036999999999999,9.172,6.392,2.28,6.035500000000001,7.885999999999999,10.0,3.1510000000000002,4.6705,5.426500000000001,5.7985
Dublin,53.34980529999999,-6.2603097000000005,2.5125,4.005000000000001,5.651,6.204,4.7615,5.44625,8.345666666666666,7.121499999999998,6.8103333333333325,5.6065,6.5015,7.514500000000001,6.254999999999999,8.3435,7.134500000000001,7.327999999999999,5.664
Dusseldorf,51.2277411,6.773455599999999,6.282000000000001,5.134,3.389,2.2300000000000004,6.6695,5.283000000000001,9.072333333333333,8.166,8.003666666666666,4.3065000000000015,7.375499999999999,5.373500000000001,3.9035,5.666,4.6640000000000015,7.868499999999999,5.3585
Edinburgh,55.953252,-3.1882669999999997,5.8450000000000015,5.114,4.109,3.337,5.185,5.967500000000001,8.991999999999997,8.485,8.552333333333333,6.092500000000001,7.763,5.438,5.9545,5.1755,7.200500000000001,7.9220000000000015,5.131
Edmonton,53.5461245,-113.49382290000001,6.729500000000002,5.522,4.6240000000000006,2.392,1.902,5.09725,8.966000000000001,7.1175000000000015,8.269,5.9479999999999995,8.17575,5.8405000000000005,7.2745000000000015,4.6099999999999985,3.974,7.925499999999999,3.385
Eindhoven,51.44164199999999,5.4697225,6.252000000000002,5.125,3.5405,3.0170000000000003,4.807499999999999,6.0317500000000015,8.836666666666666,9.107,8.559333333333333,5.0805,8.805,5.053000000000001,4.954999999999999,7.658999999999999,4.333500000000001,9.3425,4.628
Eugene,44.0520691,-123.08675359999998,6.712999999999999,5.021,3.0865000000000005,1.964,1.192,5.627000000000002,8.671,6.171500000000001,6.566666666666666,4.1735,8.231,6.5145,3.9205,4.756000000000001,2.9560000000000004,8.9695,3.533
Florence,43.769560399999996,11.2558136,6.775,4.649,2.2275,0.0,4.306,6.0287500000000005,6.189666666666667,7.9725,8.163666666666666,4.058000000000002,6.009000000000001,3.3625,2.4365,4.4415,8.503499999999999,6.7355,1.6769999999999998
Florianopolis,-27.594869800000005,-48.54821949999999,9.0595,8.331000000000001,1.0,0.0,0.6829999999999999,4.78775,2.781,6.525,5.432999999999999,1.0165000000000002,4.943999999999999,2.187,2.8525,3.185,5.33,7.637500000000001,5.751
Fort Collins,40.5852602,-105.084423,2.7445000000000013,0.0,4.0435,0.0,1.102,2.0075000000000003,8.671,6.935499999999998,6.831,4.1735,9.95325,6.5145,4.346,5.301999999999999,2.7460000000000004,9.48,6.1865000000000006
Frankfurt,50.1109221,8.6821267,5.957000000000001,5.143,3.768,3.3989999999999987,8.529,5.922999999999999,9.072333333333333,6.8375,7.707333333333334,5.2065,6.4755,5.373500000000001,3.9035,4.079,6.492000000000001,7.0345,5.3839999999999995
Fukuoka,33.5901838,130.40168880000002,4.01,0.0,1.484,1.79,6.1724999999999985,0.0,8.389666666666667,9.945,9.098,5.5275,7.915999999999999,3.7235,6.033,4.575000000000001,5.8605,7.2589999999999995,5.6815
Gdansk,54.35202520000001,18.6466384,8.508,8.126999999999999,2.6875000000000004,0.0,2.8345,5.861000000000001,5.7043333333333335,8.0405,6.855666666666666,4.6615,7.794500000000001,4.7615,5.097,5.0360000000000005,5.515,4.4785,5.025
Geneva,46.2043907,6.143157700000001,1.0775,1.0,4.692,3.089,5.866500000000001,6.002999999999999,8.888,8.427,7.443,5.186,8.601750000000001,6.5520000000000005,6.4285000000000005,8.378499999999999,5.2440000000000015,8.6205,6.5535
Gibraltar,36.140751,-5.353585,1.112,0.0,2.842,1.5659999999999998,0.758,0.0,0.0,9.3375,3.023333333333333,0.0,5.1835,0.0,2.9130000000000003,4.296,2.235,4.4265,4.7565
Glasgow,55.864237,-4.251806,6.9285000000000005,5.622999999999999,3.505,1.1820000000000002,6.1995000000000005,5.35225,8.991999999999997,7.496,8.813333333333333,5.3065000000000015,7.100999999999999,5.438,5.9545,4.252999999999999,4.671000000000001,6.9430000000000005,3.7409999999999988
Gothenburg,57.70887,11.97456,6.725,5.046000000000001,3.1285000000000007,3.725,3.6575,5.96875,9.568999999999997,7.296,8.101666666666668,4.7775,8.58975,5.694499999999999,2.7495000000000003,6.1925,4.0045,6.3645,4.5685
Grenoble,45.188528999999996,5.724524,7.505000000000001,4.317,2.7430000000000003,1.8519999999999999,3.9960000000000004,5.52575,8.088333333333333,5.8875,9.063,4.5489999999999995,6.151,4.2045,2.648000000000001,3.758,3.1785,5.0505,4.646
Guadalajara,20.6596988,-103.3496092,9.527000000000001,9.49,4.3445,0.0,1.7294999999999998,4.3455,5.764999999999999,6.472000000000001,7.034333333333333,1.2095,3.34325,3.5005,4.333500000000001,4.0925,7.657,8.1575,3.4765000000000006
Guatemala City,14.6349149,-90.50688240000001,8.8125,8.175,2.641,1.673,0.8145000000000001,0.5237499999999999,4.616999999999999,6.138999999999999,4.7636666666666665,0.0,3.75775,3.805,8.505,2.506,5.1645,7.157,4.1335
Halifax,44.64876350000001,-63.5752387,6.895000000000001,4.9430000000000005,3.6239999999999997,2.2840000000000003,1.5699999999999998,5.402750000000001,8.966000000000001,7.188500000000001,7.885666666666666,5.42,7.618499999999999,5.8405000000000005,7.2745000000000015,6.123500000000001,3.9419999999999997,7.853499999999999,4.023
Hamburg,53.5510846,9.9936819,5.9445000000000014,4.904,5.793999999999999,4.197,5.685000000000001,5.8265,9.072333333333333,6.4590000000000005,8.129999999999999,4.3065000000000015,8.123999999999999,5.373500000000001,3.9035,5.560499999999998,6.3525,7.1629999999999985,5.088
Hannover,52.3758916,9.732010400000002,7.754000000000001,6.000000000000001,1.0,0.0,5.646,6.54975,9.072333333333333,7.352500000000003,8.133666666666667,4.834,9.13125,5.373500000000001,3.9035,5.666,3.5255,7.266,4.2665
Havana,23.1135925,-82.36659559999998,9.089,7.607999999999999,1.4975000000000005,0.0,1.919,0.0,1.643333333333333,8.6335,6.999666666666665,0.0,3.86225,2.5495000000000005,0.5,1.703,2.0700000000000003,8.7595,5.0225
Helsinki,60.16985569999999,24.938379100000002,5.396000000000001,4.121,5.683,5.507000000000001,4.7505,5.77925,9.450666666666667,8.674000000000001,7.953666666666665,5.4545,9.301,3.921,4.8785,5.1035,7.054500000000001,7.501500000000001,4.797999999999999
Ho Chi Minh City,10.8230989,106.6296638,8.618,8.844000000000003,4.93,1.7390000000000003,2.08,5.1835,4.101666666666667,6.767500000000001,5.540333333333333,4.1164999999999985,1.4197499999999998,4.8345,5.045,4.565,5.874000000000001,5.9434999999999985,1.2575
Hong Kong,22.319303899999998,114.1693611,1.0,4.967,8.343,8.314,3.679,5.54025,9.294333333333334,9.3505,4.154000000000001,9.711,4.53325,6.4825,8.380499999999998,6.2275,7.0585,7.152000000000001,5.796
Honolulu,21.3069444,-157.8583333,2.3415000000000004,2.867,4.1335,0.0,1.983,4.1617500000000005,8.671,6.8565000000000005,6.430999999999997,4.2805,6.094000000000001,6.5145,4.204,6.1579999999999995,7.622999999999998,7.774000000000001,5.917500000000001
Houston,29.7604267,-95.36980279999999,5.224500000000001,6.162000000000001,7.9345,4.474,4.338500000000002,4.03075,8.671,3.129,6.379,4.928,5.304500000000001,6.5145,4.772,6.248499999999999,7.144,5.34,5.385999999999999
Hyderabad,17.385044,78.486671,10.0,10.0,8.724499999999999,3.585,3.841,4.6320000000000014,3.618,8.1265,3.957333333333333,0.0,2.8405000000000005,5.5565,3.4145,5.540000000000001,4.271,4.1324999999999985,3.2085000000000004
Indianapolis,39.768403,-86.158068,6.266,5.478,5.502999999999999,3.96,1.6815000000000002,4.85875,8.671,3.968,6.151333333333333,3.6245,6.1605,6.5145,4.062,5.8755000000000015,7.298999999999999,6.869999999999999,3.965
Innsbruck,47.2692124,11.404102400000001,6.707999999999999,4.732,2.1255,0.0,5.5695000000000014,6.3740000000000006,7.596,8.273,7.884666666666666,4.33,7.3660000000000005,4.663,2.6660000000000004,5.0595,4.4245,8.485499999999998,3.9635
Istanbul,41.0082376,28.978358899999996,9.1375,8.787,6.9535,2.111,5.8355,4.06575,5.948333333333332,6.8935,6.839999999999997,2.1525,3.40475,4.0935000000000015,4.323499999999999,3.5005,10.0,3.8925,5.7435
Jacksonville,30.3321838,-81.65565099999998,6.450000000000001,5.359,4.3475,2.545,1.5674999999999997,1.40575,8.671,3.8255,6.199,3.6245,7.12025,6.5145,4.772,6.1575000000000015,5.6545000000000005,5.6785000000000005,5.013
Jakarta,-6.2087634000000005,106.84559899999999,8.671,8.471,5.6495000000000015,6.437,2.4885000000000006,3.640000000000001,4.028666666666666,7.0005,4.183999999999998,1.0275,2.4857500000000003,4.6575000000000015,6.266,4.498999999999999,8.146,2.0665,7.202000000000001
Johannesburg,-26.2041028,28.047305100000003,8.012,7.575000000000001,4.937499999999999,1.4669999999999999,3.2030000000000003,3.91575,4.732,5.1655000000000015,3.6486666666666663,0.7585,4.325500000000001,2.7680000000000007,5.151,2.8375,4.4015,3.6605,2.9560000000000004
Kansas City,39.0997265,-94.5785667,6.7075,5.843999999999999,2.7939999999999987,3.5380000000000007,1.869,1.9725000000000004,8.671,4.422500000000001,6.4496666666666655,3.6245,7.9765,6.5145,4.062,8.188500000000001,6.674500000000001,5.0205,4.161500000000001
Karlsruhe,49.0068901,8.403652699999999,7.764499999999997,5.294,2.994,1.2990000000000002,4.7985,4.905499999999999,9.072333333333333,6.858,8.412,5.2075000000000005,7.7675,5.373500000000001,3.9035,4.5945,3.9865,8.337,4.588500000000002
Kathmandu,27.7172453,85.3239605,10.0,9.445,3.2110000000000003,0.0,1.041,5.348999999999998,4.740333333333333,8.5055,4.115999999999999,0.0,1.0,4.496,5.513000000000003,2.201,5.039,9.129,3.798
Kiev,50.4501,30.5234,9.0845,9.817,4.0495,2.545,5.4875,5.16075,4.525333333333333,7.2555,4.850999999999999,0.5,3.6665,1.2755,5.478,6.041499999999999,8.419500000000001,6.827000000000001,5.348999999999998
Kingston,41.9270367,-73.9973608,8.8955,5.937,2.648000000000001,0.0,0.8145000000000001,4.926750000000001,6.567666666666668,5.5275,6.677999999999999,0.0,3.02025,1.8295,6.073499999999999,4.4834999999999985,4.2780000000000005,2.8435,3.3460000000000005
Knoxville,35.96063839999999,-83.9207392,6.975499999999999,6.447000000000001,3.5165,0.0,1.379,1.943,8.671,5.1295,6.421666666666668,4.212,3.72325,6.5145,4.772,7.0924999999999985,4.495500000000002,5.4025,1.7525
Krakow,50.06465009999999,19.9449799,8.4245,8.509,4.534000000000002,2.11,2.9285000000000005,5.629,5.7043333333333335,8.521500000000001,6.853999999999999,4.6625000000000005,4.802,4.7615,5.097,5.7875,7.839999999999999,4.592000000000001,4.3085
Kuala Lumpur,3.1390029999999998,101.68685500000001,8.663499999999999,8.238,5.542000000000001,4.245,3.5620000000000003,4.37975,7.597333333333332,5.8809999999999985,5.950333333333332,2.5269999999999997,3.8699999999999988,6.3389999999999995,6.1265,5.4615,7.166,1.528,5.738500000000001
Kyoto,35.011564,135.7681489,3.765,0.0,1.3025,0.0,6.7945,2.5,8.389666666666667,10.0,9.078666666666667,6.2410000000000005,6.435,3.7235,6.033,3.712,8.153500000000001,7.662999999999999,1.6465
Lagos,6.5243793,3.3792057,7.767,9.097999999999999,6.4335,2.5100000000000007,1.7479999999999998,3.56475,3.2556666666666665,5.9994999999999985,2.862333333333333,0.0,1.90725,5.061,6.2155000000000005,1.6340000000000001,1.3585,1.406,3.8245
La Paz,-16.489689000000002,-68.11929359999999,4.724,0.0,1.4975000000000005,0.0,1.3190000000000002,3.83425,3.4819999999999998,6.7505000000000015,4.315999999999999,0.0,1.73375,4.5360000000000005,4.549,1.548,1.525,6.292999999999998,5.499999999999999
Las Palmas de Gran Canaria,28.1008837,-15.4653897,8.232000000000001,7.7170000000000005,1.5835,0.0,4.323499999999999,0.0,7.1196666666666655,9.1545,9.214333333333332,3.7590000000000012,6.860499999999999,4.296,3.894000000000001,6.195500000000001,2.8145,9.7185,5.5375000000000005
Las Vegas,36.169941200000004,-115.13982959999998,7.001,5.759,7.515,2.022,3.5285,4.807499999999999,8.671,2.385,5.6353333333333335,3.6245,5.5565000000000015,6.5145,4.772,5.3035,6.3685,7.275,5.385
Lausanne,46.5196535,6.6322734,4.0755,1.0,3.822,3.3080000000000003,6.5145,5.85825,8.888,8.032499999999999,7.3519999999999985,6.622000000000001,8.809750000000003,6.5520000000000005,6.4285000000000005,4.146,4.2219999999999995,8.4535,5.337999999999999
Leeds,53.8007554,-1.5490774,6.811,5.363,3.3605,4.423,6.5950000000000015,5.1057500000000005,8.991999999999997,7.731,8.633666666666667,4.9825,5.9220000000000015,5.438,5.9545,7.329499999999999,3.7435,7.2139999999999995,1.2955
Leipzig,51.339695500000005,12.373074699999998,8.177,5.9110000000000005,2.7065,0.0,4.337,6.01375,9.072333333333333,7.277000000000001,7.300333333333333,4.3065000000000015,9.03275,5.373500000000001,3.9035,5.646500000000001,4.5265,7.1935,4.747000000000001
Lille,50.62925,3.057256,7.532000000000001,5.399000000000001,3.2585,2.381,6.020000000000001,2.29375,8.088333333333333,6.942,9.071,4.3935,4.2395,4.2045,2.648000000000001,3.8269999999999986,5.1095000000000015,7.2029999999999985,2.2925000000000004
Lima,-12.0463731,-77.042754,8.712,8.496,3.8835,1.65,2.012,4.759,5.001666666666667,5.2905,5.710666666666665,0.5,2.48075,3.1625000000000005,6.524,2.41,6.8085,6.0805,5.388000000000001
Lisbon,38.722252399999995,-9.1393366,6.734000000000001,7.004000000000001,6.022,3.194,4.191000000000002,5.31575,8.238666666666665,8.437999999999999,7.860333333333332,4.48,6.4115,3.483,4.1575,6.394000000000001,7.833500000000001,9.597000000000001,5.690999999999999
Liverpool,32.6563349,-115.4765659,7.485,6.02,3.5589999999999997,2.355,6.6495000000000015,4.541,8.991999999999997,7.7285,9.027666666666667,4.872,7.2752500000000015,5.438,5.9545,8.994,5.393,7.4510000000000005,5.458500000000001
Ljubljana,46.0569465,14.5057515,8.214000000000002,6.749000000000001,4.088000000000001,1.2300000000000002,2.293,5.69875,7.676666666666666,8.953,7.671666666666668,4.8519999999999985,8.661750000000001,4.7205,4.8100000000000005,5.4895000000000005,4.799,8.184000000000001,1.8225
London,51.5073509,-0.12775830000000002,1.0,3.94,10.0,9.859,9.4025,5.3955,8.991999999999997,7.243500000000001,8.017999999999999,9.027,5.5477500000000015,5.438,5.9545,5.8455,9.4555,6.5729999999999995,5.3744999999999985
Los Angeles,34.0522342,-118.24368490000002,1.5275,4.556000000000001,10.0,10.0,3.9585,3.677000000000001,8.574666666666667,5.705,6.027333333333332,8.6245,4.7315000000000005,6.5145,4.7675,5.496500000000001,9.196,6.959999999999999,6.747000000000001
Louisville,38.252664700000004,-85.7584557,7.257999999999999,6.358000000000001,4.254,2.293,1.473,1.954,8.671,3.6175,6.162333333333333,3.6245,6.6012499999999985,6.5145,4.062,5.526999999999999,5.6935,5.778499999999998,1.3
Luxembourg,49.815273,6.1295829999999984,2.4530000000000003,3.411,3.307500000000001,1.8990000000000005,4.5805,5.8445,7.8566666666666665,8.627999999999998,8.220333333333333,3.4795,8.57625,7.473000000000001,7.151,5.457999999999999,4.495500000000002,8.8045,1.475
Lviv,49.839683,24.029717,9.777999999999999,10.0,4.204,0.0,3.7615,5.4852500000000015,4.525333333333333,7.822,4.869999999999999,0.0,4.82525,1.2755,5.478,5.055999999999999,7.0585,6.715999999999998,4.436000000000001
Lyon,45.764043,4.835659,6.697000000000001,4.349,4.4995,3.083,5.963000000000001,5.18525,8.088333333333333,7.134499999999999,8.641666666666666,4.5805,6.54325,4.2045,2.648000000000001,9.402999999999999,5.987500000000002,6.517,5.373500000000001
Madison,43.07305170000001,-89.4012302,5.8295,6.172999999999999,4.0169999999999995,2.9130000000000003,1.2295,5.473750000000001,8.671,7.362000000000001,7.006999999999999,5.385999999999999,9.524,6.5145,4.204,4.9925,4.4220000000000015,7.9005,4.376
Madrid,40.4167754,-3.7037902000000003,6.4140000000000015,6.2490000000000006,0.0,4.79,5.8555,5.285750000000001,7.1196666666666655,7.7925,8.916333333333332,4.291500000000001,5.5655,4.296,3.894000000000001,6.2410000000000005,9.338,7.665000000000001,6.22
Malaga,36.7167456,-4.4259962,8.0515,7.375,2.4585,0.0,4.3605,5.78275,7.1196666666666655,7.693,8.655666666666667,3.7590000000000012,8.108250000000002,4.296,3.894000000000001,6.1895,6.388999999999999,7.5005,5.784000000000002
Malmo,55.604981,13.003822,7.263000000000001,5.57,3.645,2.6830000000000003,4.7675,5.646750000000001,9.568999999999997,6.598000000000001,8.215,3.893,9.2055,5.694499999999999,2.7495000000000003,8.219999999999999,2.3445,5.303999999999999,4.524
Managua,12.114992599999999,-86.23617440000001,4.7855,0.0,1.8659999999999999,0.0,0.6075,0.0,4.600333333333333,7.7745000000000015,6.403666666666666,0.0,3.3405,3.9395,3.2545,1.177,1.837,9.239,1.4335
Manchester,53.4807593,-2.2426305,6.455500000000002,5.049000000000001,5.769500000000002,4.908,6.397500000000001,4.728,8.991999999999997,6.7725,8.518999999999998,5.652,4.363,5.438,5.9545,5.814,4.9750000000000005,6.6770000000000005,3.676
Manila,14.599512400000002,120.98421950000001,8.5955,8.751999999999999,4.805,3.5469999999999997,2.6345,3.713,4.592333333333333,6.4345,4.297666666666667,0.0,1.683,5.006499999999999,4.303,4.6080000000000005,7.584,5.502999999999999,4.8255
Marseille,43.296482,5.36978,7.5885,6.0260000000000025,3.3095000000000003,2.843,5.950500000000001,5.86075,8.088333333333333,5.252000000000001,8.843666666666666,4.442,3.9419999999999997,4.2045,2.648000000000001,5.5425,5.443000000000001,6.1735,5.1835
Medellin,6.2476376,-75.56581530000003,9.2315,9.315,4.618,0.0,0.928,5.3545,6.348666666666665,7.477,6.790666666666667,1.531,6.17075,4.5945,1.8515000000000004,4.1485,5.029,9.302,3.662
Melbourne,-37.813627600000004,144.96305759999998,4.829999999999999,4.798000000000001,8.204,5.020000000000001,2.8465000000000003,4.872,9.399666666666667,7.1325,8.015999999999998,6.2205,7.891499999999999,6.0695000000000014,4.5885,5.896000000000001,6.461,7.0005,6.2029999999999985
Memphis,35.1495343,-90.0489801,7.1145000000000005,5.829,4.449499999999999,0.0,1.6615000000000002,1.9175,8.671,2.8585000000000003,4.951333333333333,3.6245,4.5452499999999985,6.5145,4.772,6.07,6.860499999999999,4.0405000000000015,3.5695
Mexico City,19.4326077,-99.133208,8.360000000000001,9.244,7.479999999999999,2.6340000000000003,2.87,3.806,5.7609999999999975,5.464000000000001,6.379999999999999,1.713,2.5062500000000005,3.5005,4.333500000000001,5.8405000000000005,9.962,7.0889999999999995,3.9139999999999997
Miami,25.7616798,-80.1917902,3.031,4.497,8.0225,5.055,4.1690000000000005,4.0527500000000005,8.671,4.321000000000001,6.031000000000001,4.3945,6.292000000000001,6.5145,4.772,5.824,6.7675,6.043500000000001,5.3845
Milan,45.464203499999996,9.189982,5.1945000000000014,4.801000000000001,5.190499999999999,3.286,6.683,5.5120000000000005,6.189666666666667,7.378000000000001,8.444666666666668,4.283,4.458,3.3625,2.4365,5.0139999999999985,7.917000000000002,7.2195,5.641
Milwaukee,43.0389025,-87.9064736,6.1225,5.526,4.8305,2.005,1.5875,4.915000000000001,8.671,4.2669999999999995,6.082333333333333,4.177,7.989000000000001,6.5145,4.204,4.346,6.8375,4.843999999999999,5.064000000000001
Minneapolis-Saint Paul,44.9374831,-93.2009998,4.738500000000001,5.042000000000002,6.5265,5.5230000000000015,3.5439999999999996,4.924999999999999,8.671,5.085000000000001,6.680999999999999,5.2745,8.362,6.5145,4.062,6.258499999999999,6.8505,7.287999999999999,5.095999999999999
Minsk,53.9006011,27.558971999999997,9.4955,9.289,4.3785,0.0,3.7664999999999993,5.365500000000001,5.596333333333333,9.038,5.5106666666666655,0.5,7.04825,3.2039999999999997,5.926,4.863,6.949999999999998,7.4215,4.9060000000000015
Montevideo,-34.901112700000006,-56.16453139999999,8.183000000000002,6.197,2.863,2.205,1.183,5.287999999999999,7.943999999999997,5.9735000000000005,6.6549999999999985,1.6900000000000002,4.545,4.416,4.8285,2.1785,4.9465,9.71,5.1785
Montreal,45.5016889,-73.567256,7.392000000000001,5.9479999999999995,8.102500000000001,5.7730000000000015,3.443,5.107,8.966000000000001,7.822,7.395,7.299000000000001,7.7215,5.8405000000000005,7.2745000000000015,4.4780000000000015,6.9175,8.193,5.303
Moscow,55.755826,37.6172999,6.5550000000000015,8.099,5.053,3.7049999999999987,9.0545,4.5462500000000015,5.386666666666668,7.478,4.763,4.5725,5.27475,3.148,6.017000000000001,6.571000000000001,8.875499999999997,3.4750000000000005,5.090000000000002
Mumbai,19.0759837,72.87765590000001,8.124,9.825,9.853000000000002,6.178999999999999,5.414,3.94,3.618,7.618500000000001,3.802333333333333,0.5275,2.0965,5.5565,3.4145,3.429,4.968499999999999,3.839,5.792000000000002
Munich,48.1351253,11.581980499999998,4.23,4.648,6.915,6.5089999999999995,8.056500000000002,6.0139999999999985,9.072333333333333,9.049,8.370999999999999,7.554499999999999,9.018250000000002,5.373500000000001,3.9035,5.155000000000001,7.3359999999999985,8.4745,7.330999999999999
Nairobi,-1.2920658999999999,36.821946200000006,8.8505,8.431999999999999,6.026,4.600999999999999,2.3145,4.069,3.2463333333333333,5.972,3.5983333333333327,0.5,3.1987500000000004,4.376999999999999,5.084,1.889,2.67,2.579,4.0495
Nantes,47.218371000000005,-1.553621,7.7225,5.021,3.353,2.2300000000000004,4.989,5.997750000000001,8.088333333333333,7.6355,8.533333333333333,4.4045000000000005,7.3229999999999995,4.2045,2.648000000000001,4.867,4.351000000000001,7.0555,2.672
Naples,26.142035800000002,-81.7948103,8.215,5.81,2.0405,0.0,3.9410000000000007,4.70575,6.189666666666667,6.389500000000003,7.186333333333333,4.058000000000002,1.65625,3.3625,2.4365,5.314000000000001,6.045,6.7535,5.359
Nashville,36.1626638,-86.78160159999999,4.4545,5.742000000000001,6.0600000000000005,3.569,1.9080000000000004,4.501,8.671,5.078,5.9529999999999985,4.7330000000000005,7.056499999999999,6.5145,4.772,6.6370000000000005,7.0200000000000005,6.807500000000001,1.2735
New Orleans,29.95106579999999,-90.0715323,5.3389999999999995,4.991999999999999,4.7365,1.21,1.757,4.6275,8.671,2.088,5.884,4.151999999999999,5.6739999999999995,6.5145,4.346,6.453000000000001,7.1985,5.1240000000000006,1.0
New York,40.7127753,-74.0059728,1.0,2.342,10.0,10.0,6.675,5.51925,8.671,7.022,6.105333333333332,8.0935,5.233749999999999,6.5145,3.9205,7.0985,10.0,6.7125,5.7475
Nice,39.123225299999994,-122.848327,6.4985,4.475,3.0975,2.603,6.46,6.051,8.088333333333333,7.234,8.329666666666665,4.4045000000000005,6.422999999999999,4.2045,2.648000000000001,6.472,4.7795,6.4674999999999985,5.5265
Nicosia,35.1855659,33.38227639999999,8.631,6.301,3.407,0.0,1.606,5.491250000000001,7.438666666666665,8.102500000000001,6.7586666666666675,2.475,3.672,2.9955,7.507999999999999,2.6545,6.949,7.5055,1.7755
Oklahoma City,35.4675602,-97.5164276,7.261000000000001,6.394,4.1375,0.0,1.399,5.02725,8.671,4.6855,5.976666666666667,3.6245,7.61525,6.5145,4.204,7.689,5.376000000000001,6.022,4.129
Omaha,41.2565369,-95.93450340000001,7.0405000000000015,5.9940000000000015,4.0120000000000005,0.0,1.4165,2.1277500000000003,8.671,5.5520000000000005,6.893999999999999,4.128,7.876000000000001,6.5145,4.204,6.3065,4.942,5.800999999999998,4.181
Orlando,28.5383355,-81.3792365,5.778499999999998,5.284,6.5975,2.464,3.7735,4.33875,8.671,4.1339999999999995,5.9673333333333325,3.6245,6.676,6.5145,4.772,4.886,5.9295,5.7840000000000025,4.4929999999999986
Osaka,34.6937249,135.5022535,7.8315,4.819,2.668,2.144,6.2014999999999985,5.255000000000001,8.417666666666667,10.0,8.705333333333332,5.589499999999999,5.326750000000001,3.7235,6.033,3.7239999999999998,7.2265,7.189500000000002,5.1875
Oslo,59.913868799999996,10.7522454,3.7680000000000002,1.0380000000000005,5.2090000000000005,3.8689999999999998,5.1770000000000005,5.7752500000000015,9.635333333333332,7.1065000000000005,7.9099999999999975,5.144500000000002,8.42425,7.0735,4.752,7.9705,5.899,7.0299999999999985,6.1895
Ottawa,45.42152960000001,-75.69719309999998,6.700499999999999,6.027,6.055,2.612,1.5319999999999998,5.4052500000000006,8.966000000000001,8.4475,8.011333333333333,5.4235000000000015,9.29225,5.8405000000000005,7.2745000000000015,6.267499999999999,6.0920000000000005,8.6295,5.3184999999999985
Oulu,65.01208879999999,25.4650772,3.7445,0.0,2.3135000000000003,2.575,2.716,6.04075,9.450666666666667,8.458500000000003,7.701333333333332,5.4545,8.933000000000002,3.921,4.8785,5.722999999999999,2.006,8.329000000000002,5.072
Oxford,51.7520209,-1.2577263,3.65,4.941000000000002,4.551,3.843,7.926000000000001,5.95825,8.991999999999997,8.5685,7.9700000000000015,6.638000000000001,7.553750000000001,5.438,5.9545,6.1545000000000005,5.495,8.258000000000001,2.6290000000000004
Palo Alto,37.441883399999995,-122.14301950000001,0.5,0.0,8.2945,9.623,3.1505000000000005,2.2027499999999995,8.671,7.637,6.515,3.6245,6.7265000000000015,6.5145,4.488,7.142,0.0,8.454,1.7500000000000002
Panama,8.537981,-80.782127,3.1530000000000005,0.0,3.5589999999999997,0.0,2.002,0.0,6.208666666666668,6.976000000000001,6.593333333333334,0.0,4.38425,6.0405000000000015,6.947500000000002,3.1900000000000004,5.5565,6.7855,4.8195
Paris,48.856614,2.3522218999999995,3.5835,3.6639999999999997,9.2765,7.513000000000001,10.0,5.330500000000002,8.088333333333333,6.2465,8.207666666666666,7.085,4.36225,4.2045,2.648000000000001,9.716,9.8165,5.579,4.433
Perth,-31.950526899999996,115.8604572,5.233,4.795,5.127000000000002,3.102,2.1105,4.695,9.399666666666667,7.1045,8.059333333333331,5.143,8.132500000000002,6.0695000000000014,4.5885,4.1785,4.5115,7.470500000000001,5.6835
Philadelphia,39.9525839,-75.1652215,4.207,4.4220000000000015,7.3625,5.215999999999998,3.556,4.1315,8.671,3.133,6.482666666666664,6.0285,5.1240000000000006,6.5145,3.7785,7.443,8.492,5.864500000000001,4.115
Phnom Penh,11.556373800000001,104.92820990000001,8.552000000000001,8.001000000000001,1.4975000000000005,0.0,1.2395,4.68,1.0,6.684,2.984,0.0,2.4482500000000003,5.379999999999999,7.984000000000001,3.395,5.407,6.030500000000001,3.4330000000000007
Phoenix,33.4483771,-112.07403729999999,6.533,6.207999999999999,6.5085000000000015,4.558,3.3025,4.828500000000001,8.671,2.583,6.126333333333331,4.590999999999998,4.6252499999999985,6.5145,4.488,6.178,6.8100000000000005,5.565,6.7355
Phuket,7.951933099999999,98.3380884,8.823,7.602000000000001,2.2445,0.0,1.8075,4.50425,5.6036666666666655,5.7285,6.653666666666665,1.187,3.62425,2.387,6.794500000000001,3.615,4.8135,5.1560000000000015,4.626
Pittsburgh,40.44062479999999,-79.9958864,5.9635000000000025,4.795,6.5075,3.5809999999999995,1.7379999999999998,4.308,8.671,4.791,6.399666666666667,6.5935,6.874250000000001,6.5145,3.7785,8.669500000000001,6.859,7.3900000000000015,4.0685
"Portland, ME",43.659099299999994,-70.2568189,0.0,0.0,3.637000000000001,0.0,1.102,1.97025,8.671,6.3584999999999985,5.174666666666666,3.6245,7.675499999999999,6.5145,4.062,3.5465,3.305,8.270999999999999,4.978
"Portland, OR",45.5051064,-122.6750261,4.138,4.9239999999999995,6.957000000000001,5.899,2.2405,4.908,8.671,5.1805,6.317666666666668,4.2155,8.4595,6.5145,3.9205,5.9685000000000015,6.2195,8.1595,6.3039999999999985
Porto,42.34820999999999,-71.080545,8.109500000000002,7.4220000000000015,4.3130000000000015,1.886,3.1115,5.460000000000001,8.238666666666665,7.704500000000001,8.166666666666666,4.449,7.03875,3.483,4.1575,4.4945,5.625,9.5735,5.9485
Porto Alegre,-30.0346471,-51.2176584,9.221000000000002,8.120000000000001,2.6705,0.0,0.9655,5.105,2.781,5.2955,5.56,1.0170000000000001,4.13975,2.187,2.8525,2.1959999999999997,7.7035,7.4479999999999995,4.9224999999999985
Prague,50.0755381,14.4378005,7.4305,7.569,5.7795000000000005,2.302,5.4815000000000005,5.846500000000002,6.2126666666666654,8.6595,7.8809999999999985,4.238,7.0142500000000005,4.378000000000001,5.9335,6.0905,8.464500000000001,8.1985,4.901000000000002
Providence,36.1651258,-94.1066492,3.1530000000000005,0.0,3.764,1.0,3.0185,2.4219999999999997,8.671,6.846,6.515,5.3015,5.900499999999999,6.5145,4.204,8.9345,3.9185000000000008,7.49,1.084
Quebec,46.8138783,-71.2079809,8.5175,6.037000000000001,3.7345000000000006,2.237,1.3815000000000002,5.2799999999999985,8.966000000000001,9.1595,8.131333333333334,5.42,7.3155,5.8405000000000005,7.2745000000000015,3.2985,5.636500000000002,8.622,4.7189999999999985
Quito,-0.1806532,-78.4678382,9.0165,7.822,2.8575000000000013,0.0,0.8900000000000001,4.789250000000001,3.021333333333333,6.9689999999999985,6.4063333333333325,0.0,4.1762500000000005,3.8855,7.5139999999999985,3.4815,4.8015,8.826499999999998,5.499999999999999
Raleigh,35.7795897,-78.6381787,6.128500000000002,5.610000000000001,5.497000000000001,5.157000000000002,1.757,4.78425,8.671,6.5225,6.6773333333333325,7.1165,8.583750000000002,6.5145,4.062,7.9515,6.613,7.562000000000001,3.3905000000000003
Reykjavik,64.146582,-21.9426354,2.7715,1.0,3.168,2.875,1.1349999999999998,5.475,9.36,8.658,8.078999999999999,4.0569999999999995,8.62375,5.283,4.4655000000000005,6.742000000000001,5.0205,9.565,4.8035000000000005
Richmond,37.540724600000004,-77.4360481,6.4395000000000024,5.949,4.2705,2.097,1.38,5.6484999999999985,8.671,3.3765,6.488333333333332,3.6245,6.6217500000000005,6.5145,4.204,7.645499999999998,6.3385,7.151,1.035
Riga,56.94964870000001,24.1051865,8.933000000000002,7.329,4.3505,1.358,2.3725,5.35275,7.363333333333332,7.6255,5.710000000000001,4.090999999999998,6.966,4.094500000000001,5.928999999999999,5.841000000000001,7.7065,6.8839999999999995,5.5265
Rio De Janeiro,-22.9068467,-43.1728965,8.32,7.751,4.823,2.414,1.493,4.55325,4.036666666666666,5.2955,4.849666666666666,1.0175,3.32275,2.187,2.8454999999999995,2.338,8.6675,5.771500000000001,6.151999999999999
Riyadh,24.7135517,46.67529570000001,8.6965,7.806000000000001,3.6915,2.022,2.4605,4.75325,6.103999999999999,7.583000000000001,6.085666666666667,0.5035,3.3512500000000003,7.042000000000001,10.0,4.13,5.8435000000000015,2.9090000000000007,0.5
Rochester,43.15657789999999,-77.6088465,6.727,5.488,4.3355,1.505,1.398,1.90775,8.671,5.899,6.106,4.494999999999999,5.93525,6.5145,3.9205,5.551,5.335,5.9015,4.404
Rome,41.902783500000005,12.4963655,5.6025,5.3229999999999995,4.6745,1.013,6.4335,4.533250000000002,6.189666666666667,6.604500000000002,7.863666666666665,4.157000000000001,4.2765,3.3625,2.4365,4.4910000000000005,9.11,6.2215,6.396000000000001
Rotterdam,51.9244201,4.4777325999999995,6.0440000000000005,4.934000000000001,4.4305,2.83,8.1805,5.9670000000000005,8.836666666666666,8.267999999999999,8.329,4.3065000000000015,7.08675,5.053000000000001,4.954999999999999,5.852500000000001,5.427499999999998,8.2805,4.280999999999999
Saint Petersburg,59.931058400000005,30.360909600000003,8.3605,8.673,4.9825,0.0,5.8805,4.626,5.547000000000001,7.793000000000001,4.951999999999999,4.282,4.324250000000001,3.148,6.0445,5.6425,9.6535,4.338,5.385
Salt Lake City,40.760779299999996,-111.89104740000002,6.141000000000001,6.1720000000000015,6.3,7.09,2.7369999999999988,4.573999999999999,8.671,5.657,6.246333333333332,4.2805,6.21575,6.5145,4.204,6.810500000000001,5.932,8.6225,6.641000000000003
San Antonio,29.4241219,-98.4936282,6.402000000000001,6.683,5.356,3.53,1.6815000000000002,4.96475,8.671,4.2165,6.307,4.151999999999999,6.2014999999999985,6.5145,4.772,8.0745,6.6955,6.254,3.4185000000000003
San Diego,32.715738,-117.1610838,2.9335,5.1560000000000015,8.3505,8.595,2.6220000000000003,4.40975,8.671,6.933,6.519666666666666,5.4575,7.26725,6.5145,4.488,5.999,8.21,8.5395,6.396000000000003
San Francisco Bay Area,37.8271784,-122.2913078,1.0,2.6180000000000003,10.0,10.0,3.654500000000001,4.6872500000000015,8.671,5.7155000000000005,6.448999999999999,8.6245,6.4815000000000005,6.5145,4.488,5.605500000000001,9.407,8.012500000000001,7.013999999999999
San Jose,37.338208200000004,-121.88632859999998,8.1645,6.7280000000000015,3.822,0.0,1.1915000000000002,3.83425,5.949666666666666,6.7090000000000005,7.432666666666666,1.2095,5.256249999999999,4.081499999999999,5.751999999999999,1.5155000000000003,6.866500000000001,8.938500000000003,2.7855
San Juan,18.465539399999997,-66.1057355,7.427500000000001,5.98,1.4285,0.0,1.38,1.142,3.173,5.121000000000001,4.363333333333333,0.0,4.4932500000000015,0.0,4.3965000000000005,4.2734999999999985,6.839500000000001,3.66,5.3245000000000005
San Luis Obispo,35.2827524,-120.6596156,1.7245,0.0,3.8280000000000003,3.077,1.1340000000000001,1.3922499999999998,8.671,8.058,5.871333333333332,3.6245,7.392000000000001,6.5145,4.488,7.935500000000001,2.7765,9.666,1.5075000000000005
San Salvador,13.692940300000002,-89.2181911,8.8015,7.7429999999999986,1.6700000000000004,0.0,1.0595,4.6855,4.6613333333333316,5.4025,5.558666666666666,0.0,1.00075,2.6590000000000003,5.5255,1.831,4.8584999999999985,6.1275,1.9175
Santiago,-33.4488897,-70.66926550000001,8.3815,7.237,6.2305,1.0,2.5355,5.550999999999998,7.765,6.9645,7.066,2.6415000000000006,4.5280000000000005,3.725,8.929499999999997,1.0,7.556000000000001,7.171500000000001,5.499999999999999
Santo Domingo,18.4860575,-69.93121169999999,9.289,8.076000000000002,2.2275,0.0,1.003,4.56525,4.4129999999999985,5.779,5.026000000000002,0.5,2.3805,6.1135,5.768,4.221,5.796500000000001,5.1095000000000015,3.4175
Sao Paulo,-23.550519899999998,-46.63330939999999,8.316,7.823000000000001,6.6225000000000005,4.253000000000001,2.2655,4.412000000000001,2.781,5.2955,5.371999999999999,1.104,2.6535,2.187,2.8525,3.3895000000000004,8.789499999999999,6.8955,7.0775
Sarajevo,43.856258600000004,18.4130763,9.6925,8.658999999999999,2.5839999999999996,0.0,1.207,5.708000000000001,2.580333333333333,7.132999999999999,6.525666666666666,0.0,3.666,2.088,9.118,4.6475,5.9345,7.7365,2.8705000000000003
Saskatoon,52.157902,-106.6701577,7.159500000000001,5.042000000000002,3.1145,0.0,1.2585000000000002,5.8055,8.966000000000001,6.638000000000001,7.5139999999999985,5.344000000000001,7.757999999999999,5.8405000000000005,7.2745000000000015,4.8900000000000015,1.0,7.3359999999999985,0.5
Seattle,47.6062095,-122.33207079999998,2.291,3.79,8.367,7.551000000000001,2.8845,4.5237500000000015,8.671,5.6365,6.309666666666666,5.7145,7.560250000000001,6.5145,4.772,4.940499999999999,8.1155,8.0895,7.2094999999999985
Seoul,37.566534999999995,126.9779692,6.142500000000001,3.6980000000000013,5.283500000000001,4.066000000000002,6.155999999999999,5.7189999999999985,8.279333333333334,8.305,8.549,6.8655,6.787000000000001,5.561,6.6075,7.637,8.200000000000001,4.484,5.776
Seville,37.3890924,-5.984458900000001,8.095500000000001,6.961,1.1475,0.0,3.4770000000000003,5.567000000000001,7.1196666666666655,8.929499999999997,8.221333333333332,4.259500000000001,7.220749999999999,4.296,3.894000000000001,6.1895,7.416,9.265,3.0330000000000004
Shanghai,31.230415999999998,121.473701,5.744,7.178999999999999,5.7255,9.288,6.862,5.0845,3.8956666666666666,7.2085,6.206,5.6995000000000005,2.83875,6.103,1.4959999999999998,2.636,6.693499999999999,2.741,5.7174999999999985
Singapore,1.352083,103.819836,1.745,3.4890000000000003,9.103000000000002,8.697000000000001,2.9819999999999998,5.42725,9.724666666666666,9.9715,7.682666666666665,8.2465,7.95425,7.478500000000001,9.959,8.447000000000001,7.4224999999999985,6.494999999999999,5.834
Skopje,41.998129399999996,21.425435500000003,9.740500000000004,9.11,2.994,0.0,1.6780000000000002,5.7365,6.8823333333333325,7.2795,6.628666666666668,0.5,2.6492500000000003,4.1225000000000005,9.475,4.520499999999998,6.208000000000001,4.2895,3.302
Sofia,42.69770820000001,23.3218675,9.306000000000001,8.55,4.691,3.1550000000000007,2.6665,5.622000000000001,5.295333333333333,7.550499999999999,5.586666666666666,2.0145,4.99925,3.25,8.720500000000001,6.272500000000001,5.3184999999999985,6.740500000000001,4.0565
St. Louis,38.6270025,-90.1994042,6.957999999999999,5.504,5.424000000000001,3.885,2.5315,5.0855000000000015,8.671,3.880500000000001,6.669999999999999,5.2715,7.37425,6.5145,4.062,8.908999999999999,7.642500000000001,4.376,4.8285
Stockholm,59.329323499999994,18.068580800000003,4.865,4.36,6.267,6.229,6.2255,5.685500000000001,9.568999999999997,6.8865,8.039333333333332,6.6675,8.99175,5.694499999999999,2.7495000000000003,7.6135,6.7974999999999985,5.719500000000001,4.494
Stuttgart,48.7758459,9.1829321,6.314000000000001,5.673000000000003,3.7565,1.936,5.9645,6.205499999999999,9.072333333333333,8.269500000000003,7.851333333333333,5.0505,7.225,5.373500000000001,3.9035,5.124,5.556,7.533499999999997,3.9495
Sydney,-33.8688197,151.2092955,1.9865,4.128,8.726500000000001,6.427000000000001,3.285,4.851,9.399666666666667,7.5710000000000015,8.033666666666665,6.725500000000001,7.81675,6.0695000000000014,4.5885,4.7365,6.2275,7.0325000000000015,6.2635
Taipei,25.0329694,121.56541770000001,7.977,5.644,5.4685000000000015,2.7810000000000006,2.5105,5.6065,8.341666666666667,9.542,5.905333333333332,5.589500000000001,6.23575,6.6355,7.332999999999999,5.2315000000000005,7.2635,8.0435,5.5885
Tallinn,59.43696079999999,24.7535747,8.376500000000002,6.931000000000001,5.356,5.829,1.9705,5.932500000000001,8.129333333333333,9.4255,7.3663333333333325,5.355,7.825500000000001,4.1850000000000005,5.341,5.202000000000001,7.0235,7.838500000000002,4.5355
Tampa Bay Area,28.274347,-82.38857829999998,5.696000000000001,5.252999999999999,6.347,3.778000000000001,2.9055000000000004,1.40075,8.671,4.706499999999999,6.572999999999999,4.2805,7.37875,6.5145,4.772,7.195,6.433999999999998,5.360000000000001,5.497000000000001
Tampere,61.497752399999996,23.7609535,6.936,4.622,2.6060000000000003,2.5490000000000004,2.8480000000000003,6.3495,9.450666666666667,8.689000000000002,8.316333333333333,5.3895,8.922,3.921,4.8785,5.792000000000002,4.187000000000001,8.290500000000002,4.5710000000000015
Tartu,58.37798299999999,26.729038300000003,8.961000000000002,7.47,2.778,0.0,1.4140000000000001,6.441,8.129333333333333,9.3765,8.395,5.4035,9.416,4.1850000000000005,5.341,4.3005,4.081,7.483,3.499
Tashkent,41.299495799999995,69.2400734,5.0,0.0,1.783,0.0,2.7375000000000007,0.0,5.175333333333334,8.9045,3.693333333333333,0.0,6.5554999999999986,5.5375,6.0145,1.2425000000000002,3.1760000000000006,6.1705,4.2425
Tbilisi,41.71513770000001,44.827096000000004,9.4905,9.765,3.1485000000000007,0.0,2.2510000000000003,5.64425,7.863333333333332,9.506,5.052333333333333,0.8625,3.19675,4.2525,8.055000000000001,4.087,4.919,8.197499999999998,5.477500000000001
Tehran,35.6891975,51.3889736,8.302999999999999,9.544,4.386500000000002,0.0,3.175,3.7995,4.342666666666666,6.792999999999998,5.312333333333332,0.51,2.9425,3.9435,4.0525,1.5759999999999998,6.521,4.2225,5.499999999999999
Tel Aviv,32.0852999,34.78176759999999,4.91,4.370000000000001,7.3265,9.16,3.345,4.994249999999999,6.789999999999999,8.0065,8.338,3.766500000000001,6.02675,5.0265,6.9175,2.5660000000000003,5.3335,5.516,5.4125
The Hague,52.07049779999999,4.300699900000001,6.053000000000001,4.6530000000000005,3.864,1.107,8.000500000000002,5.061000000000001,8.836666666666666,8.789000000000001,8.213999999999999,4.3065000000000015,8.283750000000001,5.053000000000001,4.954999999999999,6.5135000000000005,5.0145,8.552999999999999,4.9239999999999995
Thessaloniki,40.6400629,22.9444191,9.3775,6.6000000000000005,3.2500000000000013,0.0,2.2604999999999995,5.91375,6.168999999999999,7.992000000000001,7.508999999999999,3.1635,3.33825,3.3199999999999994,4.1665,2.596,7.689000000000003,7.5234999999999985,4.665000000000001
Tokyo,35.6761919,139.65031059999998,5.657000000000001,3.431,6.2970000000000015,3.9629999999999987,8.1515,6.0075,8.377666666666666,10.0,8.82633333333333,6.980500000000001,5.955750000000001,3.7235,6.033,4.835000000000001,9.342000000000002,7.1945000000000014,6.5225
Toronto,43.653226000000004,-79.3831843,4.66,5.271,9.981,7.602000000000001,4.335000000000001,4.683000000000002,8.966000000000001,7.693500000000001,8.063666666666666,7.602500000000001,7.1775,5.8405000000000005,7.2745000000000015,4.383,7.8260000000000005,7.928000000000003,5.593999999999999
Toulouse,43.604652,1.444209,7.544,4.552,3.577,2.042,5.1265,5.06775,8.088333333333333,6.9670000000000005,8.831999999999997,4.442,5.0797500000000015,4.2045,2.648000000000001,4.622000000000001,4.1370000000000005,7.6335,3.3040000000000003
Tunis,36.806494799999996,10.1815316,9.968,9.998,2.969,0.0,2.6080000000000005,5.614500000000001,6.621666666666667,8.291500000000001,6.2926666666666655,0.5,3.27975,3.0920000000000005,2.5989999999999998,1.0725,5.7425000000000015,4.727,5.365500000000001
Turin,45.0703393,7.686864,8.069500000000001,5.612,3.2500000000000013,0.0,3.1495,5.60925,6.189666666666667,6.252000000000002,8.367666666666667,4.1015,3.8855,3.3625,2.4365,2.369,7.061,5.777000000000001,5.705
Turku,60.451812600000004,22.266630199999998,7.5340000000000025,5.07,1.8795,1.773,3.2239999999999998,6.7285,9.450666666666667,9.1755,8.712666666666667,5.347499999999998,9.10475,3.921,4.8785,6.6825,5.0975,7.751499999999999,4.5375
Uppsala,59.85856380000001,17.6389267,7.16,5.442,1.4285,0.0,4.7485,5.9750000000000005,9.568999999999997,7.850000000000001,8.152666666666665,5.2045,8.5815,5.694499999999999,2.7495000000000003,5.854,3.427,6.950500000000001,3.4665
Utrecht,52.09073739999999,5.121420099999999,5.4665,4.604,3.915,1.9290000000000005,8.0725,5.9902500000000005,8.836666666666666,8.631,8.394,5.5915,8.0955,5.053000000000001,4.954999999999999,6.676,5.372999999999999,8.5655,4.6965
Valencia,28.521792200000004,-81.46357669999998,8.135500000000002,6.872000000000001,1.747,2.583,3.4840000000000004,5.809000000000001,7.1196666666666655,7.786499999999998,8.885666666666664,4.266000000000001,5.94225,4.296,3.894000000000001,9.14,7.078000000000001,7.935,6.331500000000001
Valletta,35.898908500000005,14.514552800000002,3.1530000000000005,0.0,3.9095,2.148,1.889,0.0,5.377000000000001,8.517999999999999,8.107000000000001,2.8195,3.77575,5.5395,5.783499999999999,3.2015,5.827000000000001,7.562999999999999,4.716999999999999
Vancouver,49.282729100000005,-123.1207375,4.080500000000002,5.2589999999999995,8.17,5.8420000000000005,2.7710000000000004,4.93675,8.966000000000001,7.5695,8.037666666666665,6.889000000000001,8.42325,5.8405000000000005,7.2745000000000015,4.550500000000001,5.7170000000000005,8.295,7.4
Victoria,28.805267399999998,-97.00359820000001,5.696000000000001,5.702999999999999,4.479,2.719,1.4945,5.226000000000001,8.966000000000001,7.808000000000002,7.693,5.3815,9.29475,5.8405000000000005,7.2745000000000015,6.1949999999999985,4.5230000000000015,8.7825,4.3555
Vienna,48.208174299999996,16.3738189,6.314000000000001,5.111000000000001,5.798000000000001,3.6350000000000007,8.0315,6.21325,7.596,8.5965,8.198,4.854500000000002,9.27,4.663,2.6660000000000004,6.172999999999999,8.521500000000001,8.963999999999997,5.294499999999998
Vilnius,54.6871555,25.2796514,8.621,7.576,4.223,2.8280000000000003,2.105,5.9277500000000005,7.600333333333332,8.857000000000001,6.330666666666667,3.7,8.71775,4.691,6.5924999999999985,7.9265,5.198500000000001,7.393,4.106
Warsaw,52.2296756,21.012228699999998,7.8695,8.192,6.121500000000001,1.853,3.864,5.2029999999999985,5.7043333333333335,8.6995,6.881666666666666,4.668500000000001,6.3889999999999985,4.7615,5.097,6.0,7.3355000000000015,4.636000000000001,4.961
"Washington, D.C.",38.9071923,-77.03687070000001,1.2105,3.5949999999999998,8.774000000000001,8.056000000000001,4.505000000000001,4.457000000000002,8.671,2.1915,6.257999999999999,5.9685000000000015,6.99375,6.5145,4.062,3.8255000000000012,10.0,6.5495,5.0234999999999985
Wellington,-41.2768778,174.7731458,5.134499999999999,5.1610000000000005,2.4715,1.753,0.8525,6.0397500000000015,10.0,8.222999999999999,8.078333333333331,4.756,9.60925,5.505500000000001,5.9315,5.1745,4.599,8.116000000000001,6.397
Winnipeg,49.895136,-97.1383744,7.552500000000001,5.882000000000001,3.7965,0.0,1.4754999999999998,5.104500000000002,8.966000000000001,6.0155,7.755666666666667,5.344000000000001,5.67475,5.8405000000000005,7.2745000000000015,4.902500000000002,4.688,6.659000000000002,4.243
Wroclaw,51.1078852,17.0385376,8.452,8.434000000000001,3.5860000000000003,2.386,2.2445,4.9547500000000015,5.7043333333333335,8.165500000000002,6.7813333333333325,4.161500000000001,4.96475,4.7615,5.097,5.761500000000002,4.7495,3.9045,4.085
Yerevan,40.187202299999996,44.515209000000006,9.6945,9.431,3.9265,0.0,1.7870000000000004,5.64925,6.501,8.873000000000003,5.102,0.0,4.439500000000002,3.458,8.055000000000001,3.9,4.737000000000001,7.346500000000002,7.7765
Zagreb,45.815010799999996,15.981918900000002,8.91,7.193999999999999,4.453,1.775,2.028,4.830000000000001,5.720333333333333,8.6575,7.266,3.2110000000000003,7.331500000000001,2.2365,7.993499999999999,5.0335,4.9945,7.954500000000001,4.809
Zurich,47.376886600000006,8.541694,1.473,1.0,6.203500000000001,3.872,7.7334999999999985,5.839499999999999,8.888,9.0665,7.670333333333333,7.2875,8.642999999999999,6.5520000000000005,6.4285000000000005,7.2675,4.9655000000000005,8.7845,5.401
